City_ID,City,Country,Max Temp,Current Description,Lat,Lng,Hotel Name
0,Rikitea,PF,75.09,scattered clouds,-23.1203,-134.9692,People ThankYou
2,Avarua,CK,71.65,light rain,-21.2078,-159.775,Paradise Inn
6,Jamestown,US,83.79,overcast clouds,42.097,-79.2353,Hampton Inn & Suites Jamestown
8,Persianovskiy,RU,84.72,few clouds,47.5137,40.1075,Otel' Dinastiya
9,Laguna,US,86.94,clear sky,38.421,-121.4238,"Holiday Inn Express & Suites Elk Grove Central - Hwy 99, an IHG Hotel"
11,Lufilufi,WS,74.98,moderate rain,-13.8745,-171.5986,Leuaina Beach Resort and Spa
16,Kamina,CD,67.39,few clouds,-8.7386,24.9906,Guest House Florvia
21,Sao Filipe,CV,76.3,scattered clouds,14.8961,-24.4956,Hotel Xaguate
22,Voh,NC,68.23,broken clouds,-20.9667,164.7,Le gîte du Koniambo
23,Hilo,US,78.28,overcast clouds,19.7297,-155.09,Hilo Hawaiian Hotel
24,Cape Town,ZA,63.37,clear sky,-33.9258,18.4232,"Radisson Blu Hotel Waterfront, Cape Town"
27,Ribeira Grande,PT,68.4,broken clouds,38.5167,-28.7,Quinta da Meia Eira
28,Gravina In Puglia,IT,89.15,few clouds,40.8197,16.4228,Hotel Alta Murgia
29,Klyuchi,RU,72.14,light rain,52.2667,79.1667,Vesolaya Mayovka
32,Thompson,CA,64.56,few clouds,55.7435,-97.8558,Burntwood Hotel
36,Victoria,HK,86.32,scattered clouds,22.2855,114.1577,Mini Central
37,Cockburn Town,TC,85.96,scattered clouds,21.4612,-71.1419,Osprey Beach Hotel
41,Saint-Pierre,RE,66.9,clear sky,-21.3393,55.4781,Alize Plage
44,Atuona,PF,77.74,scattered clouds,-9.8,-139.0333,Villa Enata
45,Saldanha,ZA,60.85,clear sky,-33.0117,17.9442,Blue Bay Lodge
47,Zhangye,CN,72.79,overcast clouds,38.9342,100.4517,Zhangye Lvzhou Holiday Inn
48,Boguchany,RU,62.53,broken clouds,58.3814,97.4531,Uyut
49,Mitsamiouli,KM,80.89,few clouds,-11.3847,43.2844,Foyer ADM
51,Pieszyce,PL,83.91,broken clouds,50.7129,16.5823,Hotel Dębowy Biowellness & SPA
53,Atasu,KZ,77.27,clear sky,48.6814,71.6433,Dostyk
55,Old Town,CZ,85.15,clear sky,50.087,14.4202,Botanique Hotel Prague
58,Mitu,CO,69.98,overcast clouds,1.1983,-70.1733,
59,Bungu,TZ,68.58,broken clouds,-7.6337,39.0582,JaJa Lodge
60,Souillac,MU,70.18,few clouds,-20.5167,57.5167,Shanti Maurice Resort & Spa
62,Coxim,BR,86.31,clear sky,-18.5067,-54.76,Hotel Avenida
66,Busselton,AU,62.24,clear sky,-33.65,115.3333,Observatory Guest House
67,Broome,US,87.53,few clouds,42.2506,-75.833,Chenango Valley State Park
69,Basco,PH,85.53,broken clouds,20.4487,121.9702,Nathaniel's Lodge
70,Karratha,AU,69.19,clear sky,-20.7377,116.8463,ibis Styles Karratha
71,Vaini,TO,69.96,few clouds,-21.2,-175.2,Keleti Beach Resort
73,Upata,VE,85.19,overcast clouds,8.0086,-62.3989,Posada Villa Nela
74,Bratsk,RU,68.49,broken clouds,56.1325,101.6142,"Gostinitsa ""Shvedka"""
75,El Vigia,VE,79.99,overcast clouds,8.6219,-71.6506,Liceo Bolivariano 19 De Abril
76,Bhadrachalam,IN,80.17,overcast clouds,17.6667,80.8833,Hotel Srinidhi Residency
77,Pisco,PE,64.45,scattered clouds,-13.7,-76.2167,Hotel San Isidro Oficial
78,Nisia Floresta,BR,88.18,light rain,-6.0911,-35.2086,Rancho Crepusculo
79,Sarankhola,BD,81.3,overcast clouds,22.3082,89.7897,Red Crescent Cyclone Shelter Rashulpur
80,Bara,NG,86.97,broken clouds,10.3744,10.7288,
81,Akot,IN,81.36,overcast clouds,21.0964,77.0586,Shri PRASAD
82,Puerto Ayora,EC,75.16,overcast clouds,-0.7393,-90.3518,Finch Bay Galapagos Hotel
83,Mahebourg,MU,70.09,few clouds,-20.4081,57.7,Shandrani Beachcomber Resort & Spa
86,Chauk,MM,87.57,broken clouds,20.8833,94.8167,Bo Khin Guest House
87,Ucluelet,CA,71.91,few clouds,48.9329,-125.5528,Black Rock Oceanfront Resort
88,Dongsheng,CN,63.01,broken clouds,39.8161,109.9776,Crowne Plaza Ordos
89,Kapaa,US,71.58,light rain,22.0752,-159.319,Sheraton Kauai Coconut Beach Resort
90,Hithadhoo,MV,83.91,overcast clouds,-0.6,73.0833,Scoop Guest House
92,Guerrero Negro,MX,82.89,clear sky,27.9769,-114.0611,"Casa Laguna, Bed & Breakfast"
93,Abha,SA,80.85,few clouds,18.2164,42.5053,Abha Hotel
94,Poum,NC,74.61,broken clouds,-20.2333,164.0167,
95,Kulhudhuffushi,MV,82.71,overcast clouds,6.6221,73.07,Haajy Guest House 1
96,La Ronge,CA,68.25,broken clouds,55.1001,-105.2842,Northland Motor Hotel
97,Shimoda,JP,76.1,broken clouds,34.6667,138.95,Shimoda Tokyu Hotel
98,Matagami,CA,69.91,overcast clouds,49.7502,-77.6328,Motel Le Caribou
99,Roald,NO,79.72,clear sky,62.5833,6.1333,Flem Cabins
100,Bengkulu,ID,75.87,few clouds,-3.8004,102.2655,Grage Hotel Bengkulu
102,Port Blair,IN,81.0,light rain,11.6667,92.75,"Welcomhotel By ITC Hotels, Bay Island, Port Blair"
103,Chiang Khong,TH,73.27,broken clouds,20.2613,100.4046,Chiangkhong Green Inn Resident
104,Vila Franca Do Campo,PT,70.21,broken clouds,37.7167,-25.4333,Pestana Bahia Praia
106,Alyangula,AU,76.37,overcast clouds,-13.8483,136.4192,Groote Eylandt Lodge
107,Sao Felix Do Xingu,BR,87.35,overcast clouds,-6.6447,-51.995,Rio Xingu Camping
108,Oyama,JP,83.59,scattered clouds,36.3,139.8,Toyoko Inn Oyama-eki Higashi-guchi No.1
110,Roma,US,88.83,clear sky,43.2128,-75.4557,Wingate By Wyndham Rome
111,Kushima,JP,77.63,broken clouds,31.4583,131.2333,Hanaoka
112,Asuncion,PY,63.9,overcast clouds,-25.3007,-57.6359,"Crowne Plaza Asuncion, an IHG Hotel"
113,Asau,RO,74.32,broken clouds,46.4333,26.4,Casa Mika Ciobanus
115,Kutum,SD,88.63,broken clouds,14.2,24.6667,Dibbo areaمنطقة دبو
117,Suhbaatar,MN,65.08,scattered clouds,50.2314,106.2078,Hotel Nine
118,Grand Gaube,MU,70.2,scattered clouds,-20.0064,57.6608,Veranda Paul et Virginie Hotel & Spa
119,Jumla,NP,63.81,overcast clouds,29.2747,82.1838,Royal Garden Hotel
122,Mitzic,GA,73.0,light rain,0.7821,11.549,Motel Emys
123,Hasaki,JP,77.4,clear sky,35.7333,140.8333,Inubosaki Kanko Hotel
124,Qingdao,CN,73.0,light intensity shower rain,36.0986,120.3719,Le Meridien Qingdao
125,Omboue,GA,72.95,broken clouds,-1.5746,9.2618,Hotel Olako
126,Gamba,GA,72.45,clear sky,-2.65,10.0,
127,Kathor,IN,84.0,overcast clouds,21.3,72.9333,HOTEL PEARL
129,Gat,IL,81.79,clear sky,31.61,34.7642,OlusHome
132,Ternate,ID,79.5,broken clouds,0.8,127.4,Sahid Bela Ternate Hotel
134,Mana,GF,83.93,broken clouds,5.6592,-53.7767,LE SAMANA
135,Almeria,ES,85.44,clear sky,37.1667,-2.3333,Casa Rural El Laurel
137,Kupang,ID,76.98,overcast clouds,-10.1667,123.5833,Hotel On The Rock by Prasanthi
138,Chuguyevka,RU,60.78,broken clouds,44.1653,133.8633,Svet V Okne
139,Chicama,PE,61.34,broken clouds,-7.8447,-79.1469,Balihai Bungalows
141,Lyman,UA,72.37,overcast clouds,48.9884,37.8023,"Вілла ""Філін"""
144,At-Bashi,KG,63.32,few clouds,41.1702,75.8106,Hostel At-Bashy
146,Kieta,PG,77.77,light rain,-6.2167,155.6333,Uruna Bay Retreat
150,Uige,AO,87.82,few clouds,-7.6087,15.0613,Hotel Catraio
151,Georgetown,MY,82.33,moderate rain,5.4112,100.3354,Cititel Penang
152,Soyo,AO,72.23,overcast clouds,-6.1349,12.3689,Hospedaria ndozi'ame
153,Nantucket,US,82.15,clear sky,41.2835,-70.0995,Jared Coffin House
154,Hanzhong,CN,68.22,overcast clouds,33.0728,107.0303,Guorui Hotel
156,Shieli,KZ,89.76,clear sky,44.1667,66.75,Gostinitsa Aybek Shieli
158,Teya,RU,60.04,light rain,60.3778,92.6267,
159,Bambous Virieux,MU,70.05,few clouds,-20.3428,57.7575,Casa Tia Villa
160,Winnemucca,US,75.25,clear sky,40.973,-117.7357,Winners Inn Casino
162,El Alto,PE,71.26,clear sky,-4.2714,-81.2147,Black Marlin Restaurant & Hospedaje
163,Arraial Do Cabo,BR,73.36,scattered clouds,-22.9661,-42.0278,Pousada Porto Praia
165,Storforshei,NO,80.38,few clouds,66.4043,14.5233,Campingplass Mo i Rana: Storli Camping
168,Hovd,MN,73.76,scattered clouds,48.0056,91.6419,Hotel Khovd
171,Kavieng,PG,82.0,light rain,-2.5744,150.7967,Nusa Island Retreat
173,Naze,JP,77.92,overcast clouds,28.3667,129.4833,Shishime Hotel
174,Tura,IN,74.8,overcast clouds,25.5198,90.2201,Hotel RIKMAN Continental
176,Sibolga,ID,76.73,broken clouds,1.7427,98.7792,Hotel Syariah CN Darussalam
177,Pochutla,MX,86.83,overcast clouds,15.7432,-96.4661,Hotel Posada San Jose
178,Cochrane,CA,68.65,clear sky,51.1834,-114.4687,Days Inn & Suites by Wyndham Cochrane
179,Umm Lajj,SA,86.04,clear sky,25.0213,37.2685,Moon light Furnished Units
181,Taraza,CO,84.85,overcast clouds,7.5836,-75.4007,Hotel Monteverde
182,Banda Aceh,ID,80.94,overcast clouds,5.5577,95.3222,OYO 884 Rumoh PMI Hotel
183,Goderich,CA,72.91,overcast clouds,43.7501,-81.7165,Harmony Inn
184,Dzerzhinskoye,RU,65.68,few clouds,56.8344,95.2283,Kolos
186,Port Moresby,PG,74.62,few clouds,-9.4431,147.1797,Lamana Hotel (Port Moresby)
187,Ahtopol,BG,72.16,broken clouds,42.1,27.95,Agata Beach Hotel
189,Luganville,VU,78.73,few clouds,-15.5333,167.1667,The Espiritu Hotel
191,Bouna,CI,87.1,overcast clouds,9.2667,-3.0,Hôtel lababa
195,Padang,ID,77.14,broken clouds,-0.9492,100.3543,Mercure Padang
196,Touros,BR,82.96,scattered clouds,-5.1989,-35.4608,INN NEW HORIZON
197,Bathsheba,BB,86.61,scattered clouds,13.2167,-59.5167,Atlantis Hotel
198,Huangmei,CN,80.46,overcast clouds,30.1924,116.025,Tianxiachan Hotel
199,Faanui,PF,80.35,scattered clouds,-16.4833,-151.75,Bora-Bora Pearl Beach Resort & Spa
203,Tsurib,RU,60.13,light rain,42.2368,46.8307,
204,Kudahuvadhoo,MV,83.08,overcast clouds,2.6708,72.8944,Niyama Private Islands Maldives
206,Nara,JP,78.91,scattered clouds,34.6851,135.8049,Guesthouse Nara Komachi
207,Sarangani,PH,80.71,overcast clouds,5.4033,125.4636,JVL Inn and Cafeteria
208,Katherine,AU,75.52,overcast clouds,-14.4667,132.2667,Pine Tree Motel
209,Seshcha,RU,72.66,broken clouds,53.7361,33.3387,Podorozhnik
210,Martinopolis,BR,74.52,broken clouds,-22.1458,-51.1708,Hotel Pousada Sollar - Martinópolis-SP
211,Gazalkent,UZ,82.04,clear sky,41.5581,69.7708,Khumson Sanatoriy
214,Lander,US,67.1,clear sky,42.833,-108.7307,"Holiday Inn Express & Suites Lander, an IHG Hotel"
215,Korla,CN,84.07,broken clouds,41.7597,86.1469,Gulisitan Hotel
216,Adre,TD,86.07,overcast clouds,13.4667,22.2,
217,Pimentel,PE,68.29,broken clouds,-6.8367,-79.9342,Hotel Puerto del Sol
218,Marzuq,YE,85.96,overcast clouds,14.4,46.4667,
221,Abu Samrah,SY,77.4,clear sky,35.3029,37.1841,
222,Santa Rosa,PH,79.11,overcast clouds,14.3122,121.1114,Erlyn’s Sta Rosa City Home
223,Forest Hills,US,79.43,broken clouds,42.9595,-85.4898,Ada Bed and Breakfast
227,Isangel,VU,74.66,broken clouds,-19.55,169.2667,Tanna Lodge
228,Dumas,US,67.6,overcast clouds,35.8656,-101.9732,"Holiday Inn Express & Suites Dumas, an IHG Hotel"
230,Nea Apollonia,GR,85.8,broken clouds,40.6333,23.45,Hotel Voutsas
231,Kjopsvik,NO,76.87,broken clouds,68.097,16.3742,Stetind Hotell
232,Pasni,PK,83.14,scattered clouds,25.2631,63.471,Kashmiri Hotal
233,Nikolskoye,RU,82.29,clear sky,59.7035,30.7861,Tourist House - Sablino
235,Paragominas,BR,88.79,scattered clouds,-2.9667,-47.4833,INOVA
236,Chachapoyas,PE,62.82,broken clouds,-6.2317,-77.869,Teresita
237,Arcachon,FR,66.52,overcast clouds,44.5875,-1.0519,Hôtel All Suites Le Teich
238,Cabo San Lucas,MX,78.62,overcast clouds,22.8909,-109.9124,Vista Roof Restaurant
239,Tiznit,MA,68.04,clear sky,29.5833,-9.5,
242,Carnarvon,AU,68.94,light rain,-24.8667,113.6333,Hospitality Carnarvon
247,Jining,CN,79.05,heavy intensity rain,35.405,116.5814,Yunhe Star Hotel
248,Cognac,FR,67.6,clear sky,45.5,-0.25,Domaine de Pladuc
249,Hohhot,CN,64.69,scattered clouds,40.8106,111.6522,Sheraton Hohhot Hotel
250,Loreto,MX,73.35,overcast clouds,22.2667,-101.9667,José de Jesús Velásquez mora
251,Imbituba,BR,63.09,broken clouds,-28.24,-48.6703,Praia Hotel Imbituba
252,Tibacuy,CO,72.39,overcast clouds,4.3511,-72.4564,hospedaje las palmas
254,Lata,PT,65.93,broken clouds,40.1629,-8.3327,Casa Maquia
255,Namibe,AO,68.63,broken clouds,-15.1961,12.1522,Hotel Chik Chik Namibe
256,Hami,CN,86.23,clear sky,42.8,93.45,Laoyutang Resort
257,Cayenne,GF,89.64,clear sky,4.9333,-52.3333,Hôtel Le Dronmi
259,Tual,ID,79.52,moderate rain,-5.6667,132.75,Grand Vilia Hotel
261,Butaritari,KI,82.17,light rain,3.0707,172.7902,Isles Sunset Lodge
262,Sukhobezvodnoye,RU,64.17,clear sky,57.0491,44.8891,
263,Guangzhou,CN,82.87,broken clouds,23.1167,113.25,Shangjiuwan Hotel
264,Srivardhan,IN,80.58,overcast clouds,18.0333,73.0167,Savli Resort/Hotel - Shrivardhan
265,Weligama,LK,79.48,overcast clouds,5.9667,80.4167,Weligama Bay Resort
266,Wuan,CN,79.12,light rain,31.6836,112.0044,武镇大酒店
267,Caravelas,BR,76.68,broken clouds,-17.7125,-39.2481,Pousada dos Navegantes
269,Liverpool,GB,68.61,broken clouds,53.4106,-2.9779,Premier Inn Liverpool City Centre (Moorfields) hotel
270,Saint-Philippe,RE,65.79,clear sky,-21.3585,55.7679,"Chambres d'hôte ""La Trinité"""
272,Shizunai,JP,62.1,overcast clouds,42.3339,142.3669,Shizunai Eclipse Hotel
275,Ponta Do Sol,PT,74.71,scattered clouds,32.6667,-17.1,Hotel do Campo
276,Liepaja,LV,84.18,clear sky,56.5419,21.0367,Promenade Hotel
277,Gorontalo,ID,74.86,broken clouds,0.5412,123.0595,Maqna Hotel by Prasanthi
280,Porto Novo,BJ,76.82,overcast clouds,6.4965,2.6036,Tour Eiffel Hotel Benin
281,Bandarbeyla,SO,81.14,broken clouds,9.4942,50.8122,JABIR HOTEL
282,Vila Velha,BR,73.35,broken clouds,-20.3297,-40.2925,Hotel Vitória Palace
283,Urumqi,CN,85.15,clear sky,43.801,87.6005,Hua Ling Grand Hotel Urumqi
284,Axim,GH,78.75,overcast clouds,4.8699,-2.2405,Axim Beach Resort And Spa
285,Bethel,US,89.19,few clouds,41.3712,-73.414,Courtyard by Marriott Danbury
290,Rosetta,EG,78.55,clear sky,31.4044,30.4164,Green Valley
294,Oksfjord,NO,64.47,scattered clouds,70.2396,22.3479,
295,Maceio,BR,76.44,broken clouds,-9.6658,-35.7353,Hotel Ponta Verde Maceió
296,Motygino,RU,63.14,light rain,58.1831,94.7592,"Gostinitsa ""Uyut"""
297,Laon,FR,63.01,overcast clouds,49.5667,3.6667,ibis Laon
298,Hargeysa,SO,69.87,moderate rain,9.56,44.065,City Center Hotel
299,Erzin,TR,75.54,scattered clouds,36.9559,36.2,Artemis Otel
300,Chapais,CA,82.18,overcast clouds,49.7834,-74.8492,Hôtel Opémiska
301,Dingle,PH,77.34,overcast clouds,10.9995,122.6711,SEGAYA PROPERTY
302,Vikindu,TZ,72.36,broken clouds,-7.0067,39.2985,RUTA GUEST HOUSE
303,Mountain Home,US,72.88,clear sky,43.133,-115.6912,Mountain Home Inn
304,San Cristobal,VE,75.38,overcast clouds,7.7669,-72.225,Pirineos
305,Mumford,GH,78.1,overcast clouds,5.2618,-0.759,Spanish Villa
307,Oromocto,CA,73.33,clear sky,45.8351,-66.4792,Days Inn by Wyndham Oromocto Conference Centre
308,Verkhnyaya Toyma,RU,66.51,broken clouds,62.2349,44.9985,Gostinitsa
310,Manono,CD,78.8,scattered clouds,-7.3,27.4167,Hotel hewa bora
312,Charters Towers,AU,65.16,broken clouds,-20.1,146.2667,Cattleman's Rest Motor Inn
313,Thinadhoo,MV,82.53,heavy intensity rain,0.5333,72.9333,
314,Aska,IN,82.72,scattered clouds,19.6061,84.6725,Tushar rent house
316,Saku,JP,64.99,few clouds,36.2167,138.4833,Saku Grand Hotel
317,Alofi,NU,71.49,overcast clouds,-19.0595,-169.9187,Taloa Heights
320,Jiexiu,CN,72.7,overcast clouds,37.0244,111.9125,IU Hotel Jinzhong Yuhua Road
323,Zaysan,KZ,76.6,clear sky,47.4667,84.8667,Ерлан үй
324,Natal,BR,88.02,few clouds,-5.795,-35.2094,Villa Park Hotel | Natal
325,Chelmza,PL,87.06,clear sky,53.1846,18.6047,"""Tumska Przystań"" Restauracja & Hotel"
326,Sao Joao Da Barra,BR,71.69,overcast clouds,-21.6403,-41.0511,Pousada Porto De Canoas
327,Phibun Mangsahan,TH,80.58,moderate rain,15.2447,105.2291,ซันนี่ รีสอร์ท
328,Portobelo,PA,82.96,overcast clouds,9.55,-79.65,Scuba Portobelo
329,Harper,LR,79.45,light rain,4.375,-7.7169,Screensaver
330,Springbok,ZA,60.76,clear sky,-29.6643,17.8865,Undulata Country Lodge
331,Peniche,PT,71.29,clear sky,39.3558,-9.3811,Hotel Star inn Peniche
332,Deulgaon Raja,IN,78.55,broken clouds,20.0167,76.0333,Hotel YOGIRAJ LODGING & BOARDIING
333,Rio Rancho,US,63.79,overcast clouds,35.2334,-106.6645,Hilton Garden Inn Albuquerque North/Rio Rancho
335,Khakhea,BW,63.46,scattered clouds,-24.6895,23.494,
336,Zhezkazgan,KZ,85.98,clear sky,47.8043,67.7144,Hotel Zumrat
337,Port Hawkesbury,CA,72.9,overcast clouds,45.6169,-61.3485,MacKenzie House Tourist Home B&B
338,Meghri,AM,72.14,few clouds,38.9029,46.2446,Haer B&B
339,Emerald,AU,60.35,overcast clouds,-23.5333,148.1667,The Irish Village
340,Karpathos,GR,78.76,clear sky,35.507,27.2132,Alex
341,Lagoa,PT,65.77,light rain,39.05,-27.9833,Casa Das Faias
342,Baie-Comeau,CA,65.88,clear sky,49.2168,-68.1489,Travelodge by Wyndham Baie-Comeau
346,Pskov,RU,84.11,clear sky,57.8136,28.3496,Zolotaya Naberezhnaya
348,Sola,VU,80.83,scattered clouds,-13.8833,167.55,Leumerus Bungalows
349,Yatou,CN,73.53,moderate rain,37.15,122.3833,GreenTree Hotel Rongcheng Bus Station
350,Palanga,LT,84.22,clear sky,55.9175,21.0686,"Hotel ""Austėja"""
352,Torbay,CA,78.89,broken clouds,47.6666,-52.7314,Gallows Cove
353,Coos Bay,US,64.24,clear sky,43.3665,-124.2179,Best Western Holiday Hotel
355,Tlapacoyan,MX,84.06,clear sky,19.9667,-97.2167,Hotel San Diego
357,Hervey Bay,AU,64.67,overcast clouds,-25.2986,152.8535,Shelly Bay Resort
358,Lokhvytsya,UA,71.94,overcast clouds,50.3678,33.2602,Ukraine
359,Baiyin,CN,70.11,overcast clouds,36.5583,104.2081,GreenTree Alliance Gansu Baiyin Renmin Road Hotel
360,Tongliao,CN,70.86,broken clouds,43.6125,122.2653,Meirujia Hotel
361,Mbigou,GA,71.83,overcast clouds,-1.9005,11.906,
362,Sokoni,TZ,77.76,broken clouds,-6.4333,39.55,Ujamaa Beach Resort
363,Faya,SA,81.12,broken clouds,18.3851,42.4509,املاك خالد الشعشوع
364,Ribeira Brava,PT,72.12,broken clouds,32.65,-17.0667,Hotel do Campo
365,Oksovskiy,RU,65.59,broken clouds,62.6062,39.8984,Hotel Severoonezhsk
366,Anshun,CN,68.49,overcast clouds,26.25,105.9333,安顺麦吉风格酒店
368,West Bay,KY,87.87,few clouds,19.3667,-81.4167,Calypso Cove
369,Ambilobe,MG,69.62,clear sky,-13.2,49.05,Hôtel & Restaurant DIANA Ambilobe
371,Dzhebariki-Khaya,RU,63.81,clear sky,62.2167,135.8,
372,Inuvik,CA,63.61,broken clouds,68.3499,-133.7218,Nova Inn Inuvik
374,Yenagoa,NG,76.55,moderate rain,4.9247,6.2642,Aridolf Resort Wellness and Spa
375,Beloha,MG,63.73,scattered clouds,-25.1667,45.05,
376,Bartica,GY,86.32,broken clouds,6.4,-58.6167,Sloth Island Nature Resort
377,Ugra,RU,74.79,scattered clouds,54.7777,34.3267,Gostinichnyy Kompleks Vizit
378,Safford,US,76.12,overcast clouds,32.834,-109.7076,SpringHill Suites by Marriott Thatcher
379,Hobyo,SO,80.33,clear sky,5.3505,48.5268,Iftin hotel hobyo
380,Altea,ES,81.79,clear sky,38.5989,-0.0514,Albir Playa Hotel & Spa
382,Pervomayskiy,RU,69.67,scattered clouds,53.2485,40.2871,
384,Zhoucheng,CN,79.39,heavy intensity rain,35.9122,116.3117,Yingbin Restaurant
386,Ucar,AZ,78.98,light rain,40.519,47.6542,Aşura market
387,Chifeng,CN,73.22,light rain,42.2683,118.9636,Junyu Tiancheng Hotel
388,Cuitzeo,MX,82.63,overcast clouds,20.3333,-102.7833,Hotel Home 1
389,Meiganga,CM,69.15,moderate rain,6.5167,14.3,DFR HOUSE
390,Lodja,CD,81.82,broken clouds,-3.4833,23.4333,
391,Edson,CA,68.11,clear sky,53.5835,-116.4356,"Holiday Inn Express & Suites Edson, an IHG Hotel"
393,Karlstad,SE,82.96,broken clouds,59.3793,13.5036,Scandic Karlstad City
394,Ketchikan,US,63.07,clear sky,55.3422,-131.6461,Snow's Cove Lodge
396,San Policarpo,PH,80.83,overcast clouds,12.1791,125.5072,Agapita M. Nicart
397,Sabang,ID,82.96,overcast clouds,5.8933,95.3214,Hotel Citra
399,Qrendi,MT,85.66,clear sky,35.8347,14.4583,M'Anglu
400,Lasa,IT,81.7,overcast clouds,46.6166,10.7002,Pension Feldgärtenhof
401,Coahuayana,MX,82.49,overcast clouds,18.7333,-103.6833,El rranchito michuacan de ocampos
402,Mbandaka,CD,76.78,overcast clouds,0.0487,18.2603,Guest House Epervier
404,Kampot,KH,82.45,overcast clouds,10.6167,104.1833,Two Moons Hotel
406,Kumluca,TR,79.97,broken clouds,36.3703,30.2869,Akkol Apart
407,Le Havre,FR,67.75,clear sky,49.4938,0.1077,Oscar Hôtel
408,Holland,US,77.56,overcast clouds,42.7875,-86.1089,Hampton Inn Holland
412,Half Moon Bay,US,73.81,mist,37.4636,-122.4286,"The Ritz-Carlton, Half Moon Bay"
414,Gotha,DE,81.0,clear sky,50.9482,10.7019,Hotel am Schlosspark
415,Molokovo,RU,77.2,clear sky,58.1661,36.7628,Gostinitsa Transneft
416,Madang,PG,76.26,overcast clouds,-5.2246,145.7966,Comfort Inn Hotel
417,Woodward,US,63.63,clear sky,36.4337,-99.3904,"Holiday Inn Express & Suites Woodward Hwy 270, an IHG Hotel"
419,Ust-Maya,RU,63.52,few clouds,60.4167,134.5333,
421,Kamphaeng Phet,TH,79.41,broken clouds,16.25,99.5,ฟาร์มแพะ หนองผักหนาม
422,Seoul,KR,82.0,light rain,37.5683,126.9778,롯데호텔 서울
423,Hamilton,US,86.86,clear sky,39.1834,-84.5333,Six Acres Bed & Breakfast
427,Kavaratti,IN,82.53,overcast clouds,10.5669,72.642,Hotels in Lakshadweep Islands
432,Sinnai,IT,88.25,clear sky,39.3042,9.2036,La Rosa Dei Venti Sardinya
433,The Pas,CA,68.02,clear sky,53.8251,-101.2541,Wescana Inn
434,Luwuk,ID,76.96,scattered clouds,-0.9516,122.7875,Hotel Santika Luwuk
435,Haimen,CN,80.49,scattered clouds,23.1935,116.6142,Shantou Chaoyang Donghui Hotel
436,Santa Isabel,BR,65.91,overcast clouds,-23.3156,-46.2214,Chácara Sombra do Altíssimo
438,Kodinsk,RU,60.91,broken clouds,58.6881,99.1844,
440,Yaan,NG,80.29,overcast clouds,7.3833,8.5667,
441,Kholm,RU,80.8,clear sky,59.2667,32.85,
442,Marmora,IT,75.45,broken clouds,44.4583,7.094,"Locanda degli elfi e ristorante Mascha Parpaja, albergo diffuso"
445,Lugoba,TZ,70.14,overcast clouds,-6.45,38.3333,
447,Taltal,CL,63.43,light rain,-25.4,-70.4833,Residencial Karime
448,Antalaha,MG,68.81,scattered clouds,-14.9003,50.2788,Hotel Vitasoa
449,Shimanovsk,RU,61.07,clear sky,52.0,127.7,Гостиница Домашняя
451,Pili,PH,77.29,overcast clouds,13.5833,123.3,Moraville Drive-In Hotel
452,Bereda,ES,65.41,overcast clouds,43.2686,-7.5406,Pazo de Verdes
454,Pundaguitan,PH,81.18,overcast clouds,6.3711,126.1689,Leonardo Family Beach House 1
455,Iquique,CL,62.64,overcast clouds,-20.2208,-70.1431,Backpacker`s Hostel Iquique
456,Raga,SS,82.96,broken clouds,8.4596,25.678,
457,Nouakchott,MR,89.53,scattered clouds,18.0858,-15.9785,HOTEL IMAN
458,Wismar,DE,74.68,overcast clouds,53.9,11.4667,Townhouse Wismar a Vagabond Club
459,Labuhan,ID,77.04,overcast clouds,-6.8844,112.2051,DoubleFAG
460,Pindiga,NG,85.28,broken clouds,9.9833,10.9333,Accommodation Center
464,Shizukuishi,JP,70.02,overcast clouds,39.6833,140.9833,Hotel Taikan
465,Uvalde,US,88.32,broken clouds,29.3669,-99.767,
466,Talavera,PH,76.6,overcast clouds,15.6167,120.9333,R&G's Resort
467,Yichang,CN,83.1,overcast clouds,30.7144,111.2847,Gezhouba Hotel
469,Xuanhua,CN,71.1,moderate rain,40.6103,115.0447,Jinjiang Inn Zhangjiakou Xuanhua People's Park
474,Daru,PG,78.87,broken clouds,-9.0763,143.2092,Daru Lodge
476,Hirara,JP,83.55,broken clouds,24.8,125.2833,Hotel Atoll Emerald Miyakojima
477,Tautira,PF,78.82,light rain,-17.7333,-149.15,Pension Oaoa
478,Ocampo,MX,71.49,broken clouds,21.65,-101.5,Hotel Estancia del Vaquero
480,Tarauaca,BR,88.47,clear sky,-8.1614,-70.7656,Flat Temporada
481,Ajdabiya,LY,88.9,clear sky,30.7554,20.2263,Almadina Hotel
482,Tabou,CI,79.29,light rain,4.423,-7.3528,hotêl doufoulougou
484,Tiarei,PF,71.62,light rain,-17.5333,-149.3333,Le Rocher de Tahiti
486,El Fuerte,MX,87.98,broken clouds,26.4189,-108.6194,Hotel Rio Vista
488,Berkovica,BA,86.31,clear sky,44.6156,18.4294,Alić Ibrahim
489,Moville,US,71.6,scattered clouds,42.4889,-96.0725,EastSide Acres Mobile Home Park
492,Veraval,IN,83.71,heavy intensity rain,20.9,70.3667,Lords Inn Somnath
493,Sayansk,RU,61.7,broken clouds,54.1088,102.1648,Yubileynaya
494,Hualmay,PE,67.5,broken clouds,-11.0964,-77.6139,Hotel Villa Kitzia Huacho
495,Deqing,CN,80.8,overcast clouds,30.5448,119.9599,Narada Boutique Hotel Huzhou Deqing
497,Razvilka,RU,85.28,scattered clouds,55.5917,37.7408,Milan Hotel
498,Siuna,NI,84.63,overcast clouds,13.7332,-84.7773,hotel los chinitos
499,Dire Dawa,ET,75.49,light rain,9.5931,41.8661,Samrat Hotel
500,Selenginsk,RU,63.01,overcast clouds,52.0064,106.8647,Selenga
505,Energeticheskiy,KZ,75.76,few clouds,43.4278,77.0222,Gomoradiatsionnaya Elektrostantsiya
507,Boz,FR,72.39,overcast clouds,46.4071,4.9109,Le Jardin De La Reyssouze
508,Nanae,JP,66.79,overcast clouds,41.8833,140.6833,とみや旅館
509,Hammerfest,NO,63.05,clear sky,70.6634,23.6821,Skytterhuset
510,Laizhou,CN,73.62,heavy intensity rain,37.1717,119.9214,GreenTree Inn Yantai Laizhou South Road Unicom Building Express Hotel
511,Kawalu,ID,72.19,overcast clouds,-7.3817,108.2082,West Jontor
512,Namwala,ZM,62.42,few clouds,-15.7504,26.4384,Corner Point Lodge
513,Yantal,RU,60.98,light rain,56.8471,105.2542,
514,Springdale,US,83.5,clear sky,36.1867,-94.1288,Springdale Inn
516,Eydhafushi,MV,82.92,broken clouds,5.1033,73.0708,Soneva Fushi
517,Sayyan,YE,69.42,overcast clouds,15.1718,44.3244,ملاطف ابوحورية
518,Lingyuan,CN,72.03,overcast clouds,41.24,119.4011,Guomao Hotel
519,Meulaboh,ID,76.71,light rain,4.1363,96.1285,Kost Pria
521,Mishelevka,RU,63.66,scattered clouds,52.8575,103.1719,База отдыха Белая
522,College,US,71.2,smoke,64.8569,-147.8028,Pike's Waterfront Lodge
523,Tukums,LV,83.55,clear sky,56.9669,23.1553,Tukuma Ledus Halle
524,Mawlaik,MM,78.71,light rain,23.6333,94.4167,AKZ Guest House
525,Novopokrovka,UA,71.56,overcast clouds,49.8425,36.5477,Пудж дом
527,Sumbe,AO,71.01,few clouds,-11.2061,13.8437,Hotel Ritz Sumbe
528,Sanming,CN,76.03,overcast clouds,26.2486,117.6186,Sanming Huangting Lijing Hotel
529,Manta,EC,74.98,overcast clouds,-0.95,-80.7333,Balandra Hotel
530,Tangzhai,CN,80.15,overcast clouds,34.4328,116.5911,Huilong Business Hotel
531,Kabare,CD,60.8,light rain,-2.4683,28.8242,Hôtel Panorama
532,Birin,NP,64.44,overcast clouds,26.8865,88.0718,Sangam hotel and lodge
533,Joshimath,IN,73.51,overcast clouds,30.5667,79.5667,Shivalik Camps & Resort
534,Xalpatlahuac,MX,74.57,broken clouds,17.4667,-98.6167,Hotel Villareal
535,Ukiah,US,86.94,clear sky,39.1502,-123.2078,Hampton Inn Ukiah
536,Kilinochchi,LK,81.14,overcast clouds,9.3961,80.3982,Solaivanam Guest House
537,Pitimbu,BR,84.79,scattered clouds,-7.4706,-34.8086,Reserva do Abiaí
539,Jaque,PA,80.89,overcast clouds,7.5175,-78.1703,Aventuras Jaque S.A
540,Ahuimanu,US,74.91,light rain,21.4447,-157.8378,Paradise Bay Resort
541,Mount Isa,AU,64.17,overcast clouds,-20.7333,139.5,ibis Styles Mt Isa Verona
545,Porbandar,IN,84.72,overcast clouds,21.6422,69.6093,Lords Inn Porbandar
548,Katsuura,JP,74.86,clear sky,35.1333,140.3,Katsuura Hotel Mikazuki
551,Lugovoy,KZ,79.0,few clouds,42.9472,72.7644,Ж.Д Вокзал Луговая
552,Nouadhibou,MR,76.98,sand,20.931,-17.0347,El Medina
553,Llano Largo,PA,86.47,overcast clouds,7.9,-80.4333,Paradise Resort Hotel
555,Tukrah,LY,84.4,clear sky,32.5341,20.5791,Lagrota restaurant
558,Anito,PH,79.09,overcast clouds,12.4497,125.2886,El Felix Cottages
559,Barcelos,PT,67.91,few clouds,41.5388,-8.6151,Hotel Restaurante Bagoeira
560,Ranong,TH,79.65,moderate rain,9.9658,98.6348,Numsai Khaosuay Resort Ranong
561,Trofors,NO,80.11,broken clouds,65.5333,13.4063,Utpå Neset AS
562,Farafangana,MG,67.57,moderate rain,-22.8167,47.8333,Miarina
566,Salalah,OM,84.29,broken clouds,17.0151,54.0924,"HAMDAN PLAZA HOTEL SALALAH, an HTG Hotel"
567,Altay,CN,71.55,scattered clouds,47.8667,88.1167,Jinqiao Hotel
571,Jablah,SY,79.09,few clouds,35.3614,35.9256,بستان صالح
574,Lazurne,UA,74.3,overcast clouds,46.084,32.5295,New Manna Hostel
575,Coolum Beach,AU,61.11,overcast clouds,-26.5333,153.1,Coolum Beach Resort
576,Wajima,JP,72.57,broken clouds,37.4,136.9,Wajiima Onsen Yashio
577,Buenaventura,CO,80.87,broken clouds,3.8801,-77.0312,Hotel Victoria
578,Tecoanapa,MX,85.42,broken clouds,16.5167,-98.75,Hotel Manglares
579,Meadow Lake,US,63.84,overcast clouds,34.8014,-106.5436,TumbleWeed RV Park
580,Tanggu,CN,76.96,overcast clouds,39.0211,117.6469,Ibis Tianjin Tanggu Hotel
581,Camacha,PT,67.42,few clouds,33.0833,-16.3333,Hotel Porto Santo & Spa
582,Gisors,FR,71.67,overcast clouds,49.2818,1.7801,Hôtel Moderne
584,Katsuyama,JP,80.96,few clouds,36.0617,136.501,Pension UPO
585,Trairi,BR,84.69,few clouds,-3.2778,-39.2689,janelas do mar
586,El Tocuyo,VE,86.72,overcast clouds,9.7873,-69.7937,HOTEL BOUTIQUE SANTO DOMINGO
587,Sept-Iles,CA,67.05,scattered clouds,50.2001,-66.3821,Comfort Inn
588,Kamenka,RU,65.3,clear sky,51.3223,42.7678,
589,San Quintin,MX,75.56,clear sky,30.4833,-115.95,Don Eddie's Sport Fishing Center
593,Huarmey,PE,67.6,broken clouds,-10.0681,-78.1522,Hotel Miramar
596,Wuda,CN,71.71,few clouds,39.4994,106.7117,Grape Sightseeing Garden
597,Port Keats,AU,76.68,overcast clouds,-14.25,129.55,TDC Village (Hundred Man Camp)
598,Humaita,BR,88.74,broken clouds,-7.5061,-63.0208,Corrêa Hotel
599,Eureka,US,63.79,few clouds,40.8021,-124.1637,Eureka Inn Trademark By Wyndham
600,Namtsy,RU,65.53,overcast clouds,62.7161,129.6658,"""Эңсиэли Киин"""
602,Morant Bay,JM,88.72,few clouds,17.8815,-76.4093,Whispering Bamboo Cove Resort
604,Port-Gentil,GA,75.16,few clouds,-0.7193,8.7815,Fengshui Residence
606,Marsh Harbour,BS,81.36,few clouds,26.5412,-77.0636,Abaco Beach Resort
607,Roebourne,AU,69.4,clear sky,-20.7833,117.1333,Latitude20 Roebourne Village
608,The Valley,AI,87.66,scattered clouds,18.217,-63.0578,CeBlue Villas & Beach Resort
610,Cristalina,BR,77.63,broken clouds,-16.7686,-47.6136,HOTEL TOPAZIO
613,Richards Bay,ZA,61.41,clear sky,-28.783,32.0377,BON Hotel Waterfront Richards Bay
614,Yellandu,IN,79.9,overcast clouds,17.6,80.3333,Varalaxmi
615,Miyang,CN,66.04,overcast clouds,24.4042,103.4428,Huibinlou Hotel
616,Praia Da Vitoria,PT,71.85,light intensity shower rain,38.7333,-27.0667,Hotel Branco I
617,Kyrnasivka,UA,68.09,broken clouds,48.5955,28.979,
618,Moose Factory,CA,64.4,mist,51.2585,-80.6094,Cree Village Eco Lodge
620,Turukhansk,RU,61.02,overcast clouds,65.8167,87.9833,"ООО ""Туруханская пушнина"""
621,Pedasi,PA,87.06,overcast clouds,7.5333,-80.0333,Hotel Casa de Campo Pedasí
622,Unai,BR,84.31,broken clouds,-16.3575,-46.9061,Hotel Regente
623,Kahului,US,76.84,few clouds,20.8947,-156.47,Maui Seaside Hotel
624,Capesterre-Belle-Eau,GP,87.17,overcast clouds,16.0432,-61.566,Gîte de Carangue Belle
626,Todos Santos,MX,76.44,overcast clouds,23.45,-110.2167,Hotel California Todos Santos
629,Bourail,NC,67.98,broken clouds,-21.5667,165.4833,Motel Allamanda
630,Nabire,ID,74.88,heavy intensity rain,-3.3667,135.4833,Hotel Nusantara I
631,Kilindoni,TZ,77.7,broken clouds,-7.9139,39.6668,Bustani B&B
632,Cabra,ES,83.66,clear sky,37.4725,-4.4421,MS Fuente Las Piedras
633,Hoi An,VN,78.76,scattered clouds,15.8794,108.335,Belle Maison Hadana Hoi An managed by H&K Hospitality
634,Thunder Bay,CA,60.78,overcast clouds,48.4001,-89.3168,Victoria Inn Hotel and Convention Centre
635,Livingston,GB,63.14,scattered clouds,55.9029,-3.5226,Mercure Livingston Hotel
636,Marfino,RU,84.45,clear sky,55.7028,37.3822,Nemchinovka-Park
637,Gannan,CN,67.77,scattered clouds,47.9147,123.5031,Gannan Supply and Marketing Cooperatives Hostel
639,Belmonte,BR,77.81,overcast clouds,-15.8631,-38.8828,Pousada Monte Carmelo O Pão
642,Coruripe,BR,78.31,scattered clouds,-10.1256,-36.1756,Pousada e Hotel Litoral Sul
643,Lingen,DE,72.23,overcast clouds,52.5167,7.3167,Parkhotel Lingen
644,Bambanglipuro,ID,76.73,overcast clouds,-7.95,110.2833,Puri Brata
646,Trondheim,NO,79.99,broken clouds,63.4305,10.3951,Comfort Hotel Trondheim
647,Dombarovskiy,RU,62.37,clear sky,50.7587,59.5386,
649,Mormugao,IN,81.34,overcast clouds,15.4,73.8,Coconut Creek Resort
650,Gladstone,AU,62.78,overcast clouds,-23.85,151.25,Highpoint International Hotel
651,Brasilia,BR,79.63,clear sky,-15.7797,-47.9297,Sia Park Executive Hotel - Uma empresa Brasal
652,Nyurba,RU,61.68,overcast clouds,63.2842,118.3319,"Гостиница ""Comfort"""
654,Santo Amaro Da Imperatriz,BR,66.65,overcast clouds,-27.6881,-48.7786,BBS Comércio de Produtos Agropecuários.
655,Kimbe,PG,75.85,overcast clouds,-5.5502,150.1429,Kimbe Bay Hotel
656,Waingapu,ID,77.97,overcast clouds,-9.6567,120.2641,Pondok Wisata Elim
657,Muros,ES,61.09,few clouds,42.7762,-9.0603,Apartment Av. Castelao
658,Pacific Grove,US,66.81,overcast clouds,36.6177,-121.9166,Lovers Point Inn
659,Merauke,ID,78.19,broken clouds,-8.4667,140.3333,
660,Surt,LY,84.92,clear sky,31.2089,16.5887,الهادي ابوشعاله سرت
661,Sinnamary,GF,82.13,overcast clouds,5.3833,-52.95,ALETHEIA Appartement Sinnamary
663,Kuna,US,80.08,clear sky,43.4918,-116.4201,Winfield Springs
664,Vaitape,PF,80.42,scattered clouds,-16.5167,-151.75,Conrad Bora Bora Nui
668,Benito Juarez,MX,66.99,broken clouds,19.385,-99.165,Hotel Beverly
669,Deolali,IN,75.65,scattered clouds,19.95,73.8333,Quality Inn Regency
670,Svirstroy,RU,74.14,clear sky,60.7999,33.7248,Guest House Naberezhnaya 9
671,San Felipe,VE,83.62,overcast clouds,10.3399,-68.7425,Posada Llovizna Rodríguez
672,Mareeba,AU,69.44,overcast clouds,-17.0,145.4333,Trinity Plains Tourist Park
675,Paita,PE,69.15,few clouds,-5.0892,-81.1144,Hotel Náutico de Paita
676,Salima,MW,69.6,clear sky,-13.7804,34.4587,YAMIKANI LODGE
677,Asfi,MA,70.88,clear sky,32.2994,-9.2372,Hôtel Abda
679,Quatre Cocos,MU,69.91,few clouds,-20.2078,57.7625,Sunrise Attitude Hotel
680,Bhainsdehi,IN,77.95,moderate rain,21.6467,77.6325,Prince Rathore HOME
682,Havre-Saint-Pierre,CA,71.96,clear sky,50.2334,-63.5986,Auberge Niapiskau
683,Angoram,PG,72.95,overcast clouds,-4.0625,144.0661,
684,Smolensk,RU,76.12,scattered clouds,55.0,33.0,
685,Sulangan,PH,83.43,light rain,11.1373,123.7228,Maia's Beach Resort
686,Rawah,IQ,88.41,clear sky,34.4816,41.9093,بيت سميع
689,Ponta Delgada,PT,70.52,scattered clouds,37.7333,-25.6667,Vila Nova Hotel
691,Madimba,TZ,75.65,scattered clouds,-10.4,40.3333,
692,Quang Ngai,VN,77.52,scattered clouds,15.1167,108.8,Central Hotel
693,Mingyue,CN,61.41,clear sky,43.1069,128.9217,安图土地大厦
694,Bandarban,BD,83.91,overcast clouds,22.1965,92.2262,"Hilltop, Hafazgona, Bandarban"
696,Miranda,CO,81.64,broken clouds,3.2499,-76.2281,unidiversidad organica la utopia
697,Musoma,TZ,72.61,overcast clouds,-1.5,33.8,New Peninsula Hotel
698,Aksu,CN,84.88,clear sky,41.1231,80.2644,Pudong Holiday Hotel
699,Sarahan,IN,67.59,broken clouds,31.5167,77.8,Hotel Monal
700,Solms,DE,82.35,broken clouds,50.7667,9.6,Landgasthof & Hotel Jossatal
703,Puerto Del Rosario,ES,73.15,broken clouds,28.5004,-13.8627,Hotel JM Puerto del Rosario
705,Igarka,RU,60.19,light rain,67.4667,86.5833,"Zapolyar'ye, Gostinitsa"
706,Mpongwe,ZM,63.59,few clouds,-13.5091,28.155,Casablanca guest house and bar
708,Shestakovo,RU,61.0,light rain,56.4915,103.96,
709,Iracoubo,GF,83.1,broken clouds,5.4802,-53.2011,Le Gîte d’Iracoubo
711,Vathi,GR,87.75,clear sky,38.4,23.6,Δεσποτικό στο άλσος Δραμεσίου
712,Xucheng,CN,81.41,clear sky,20.35,110.1288,Haixing Hotel
715,Havelock,US,88.05,broken clouds,34.8791,-76.9013,Sherwood Motel
716,Powell River,CA,74.34,few clouds,49.8496,-124.5361,Rodmay Hotel
717,Along,IN,73.24,overcast clouds,28.1667,94.7667,Hotel West
